[
    {
        "region": "CENTRO SUR",
        "code": "01LES-115",
        "name": "La Estancia",
        "state": "MEXICO",
        "municipality": "ACAMBAY DE RUIZ CASTAÑEDA",
        "latitude": 19.9558,
        "longitude": -99.8447
    },
    {
        "region": "VDM NORTE",
        "code": "01ACO-230",
        "name": "Acolman",
        "state": "MEXICO",
        "municipality": "ACOLMAN",
        "latitude": 19.6375,
        "longitude": -98.9108
    },
    {
        "region": "VDM NORTE",
        "code": "01SOX-230",
        "name": "Sosa Texcoco",
        "state": "MEXICO",
        "municipality": "ACOLMAN",
        "latitude": 19.6423,
        "longitude": -98.9182
    },
    {
        "region": "CENTRO SUR",
        "code": "01AUO-115",
        "name": "Aculco",
        "state": "MEXICO",
        "municipality": "ACULCO",
        "latitude": 20.0989,
        "longitude": -99.8269
    },
    {
        "region": "CENTRO SUR",
        "code": "01PDO-115",
        "name": "Papelera el Nevado",
        "state": "MEXICO",
        "municipality": "ALMOLOYA DE JUAREZ",
        "latitude": 19.3692,
        "longitude": -99.7583
    },
    {
        "region": "VDM SUR",
        "code": "01AGV-85",
        "name": "Agua Viva",
        "state": "MEXICO",
        "municipality": "AMECAMECA",
        "latitude": 19.1258,
        "longitude": -98.7664
    },
    {
        "region": "CENTRO ORIENTE",
        "code": "01AFM-230",
        "name": "Aeropuerto Internacional Felipe Angeles Maniobras",
        "state": "MEXICO",
        "municipality": "ZUMPANGO",
        "latitude": 19.7550,
        "longitude": -99.0167
    },
    {
        "region": "CENTRO SUR",
        "code": "01SMT-115",
        "name": "San Mateo",
        "state": "MEXICO",
        "municipality": "ALMOLOYA DE JUAREZ",
        "latitude": 19.3682,
        "longitude": -99.7528
    },
    {
        "region": "CENTRO SUR",
        "code": "01YBC-115",
        "name": "Yebucibi",
        "state": "MEXICO",
        "municipality": "ALMOLOYA DE JUAREZ",
        "latitude": 19.3547,
        "longitude": -99.7683
    },
    {
        "region": "VDM SUR",
        "code": "01PDC-115",
        "name": "Paso de Cortes",
        "state": "MEXICO",
        "municipality": "AMECAMECA",
        "latitude": 19.1325,
        "longitude": -98.6428
    },
    {
        "region": "CENTRO ORIENTE",
        "code": "01CEA-85",
        "name": "Cementos Apaxco",
        "state": "MEXICO",
        "municipality": "APAXCO",
        "latitude": 19.9750,
        "longitude": -99.1719
    },
    {
        "region": "VDM SUR",
        "code": "01ATE-230",
        "name": "Atenco",
        "state": "MEXICO",
        "municipality": "ATENCO",
        "latitude": 19.5517,
        "longitude": -98.9186
    },
    {
        "region": "VDM NORTE",
        "code": "01ATI-230",
        "name": "Atizapan",
        "state": "MEXICO",
        "municipality": "ATIZAPAN DE ZARAGOZA",
        "latitude": 19.5725,
        "longitude": -99.2519
    },
    {
        "region": "VDM NORTE",
        "code": "01BBV-230",
        "name": "BBVA Centro Tecnologico America",
        "state": "MEXICO",
        "municipality": "ATIZAPAN DE ZARAGOZA",
        "latitude": 19.5638,
        "longitude": -99.2673
    },
    {
        "region": "CENTRO SUR",
        "code": "01AIN-115",
        "name": "Atlacomulco Industrial",
        "state": "MEXICO",
        "municipality": "ATLACOMULCO",
        "latitude": 19.8014,
        "longitude": -99.8736
    },
    {
        "region": "VDM NORTE",
        "code": "01VMA-400",
        "name": "Valle de Mexico Maniobras",
        "state": "MEXICO",
        "municipality": "AXAPUSCO",
        "latitude": 19.7247,
        "longitude": -98.7589
    },
    {
        "region": "VDM SUR",
        "code": "01JCP-85",
        "name": "Juchitepec",
        "state": "MEXICO",
        "municipality": "AYAPANGO",
        "latitude": 19.1011,
        "longitude": -98.8789
    },
    {
        "region": "VDM SUR",
        "code": "01ATE-85",
        "name": "Atenco",
        "state": "MEXICO",
        "municipality": "ATENCO",
        "latitude": 19.5539,
        "longitude": -98.9147
    },
    {
        "region": "CENTRO SUR",
        "code": "01ATU-115",
        "name": "Atlacomulco Mexico",
        "state": "MEXICO",
        "municipality": "ATLACOMULCO",
        "latitude": 19.7992,
        "longitude": -99.8750
    },
    {
        "region": "VDM NORTE",
        "code": "01ZAE-85",
        "name": "Zapata Embases",
        "state": "MEXICO",
        "municipality": "CUAUTITLAN",
        "latitude": 19.6703,
        "longitude": -99.1814
    },
    {
        "region": "VDM NORTE",
        "code": "01ALR-85",
        "name": "Alpura",
        "state": "MEXICO",
        "municipality": "CUAUTITLAN IZCALLI",
        "latitude": 19.7219,
        "longitude": -99.2317
    },
    {
        "region": "VDM NORTE",
        "code": "01BDK-85",
        "name": "Becton Dickinson",
        "state": "MEXICO",
        "municipality": "CUAUTITLAN IZCALLI",
        "latitude": 19.7186,
        "longitude": -99.2258
    },
    {
        "region": "VDM NORTE",
        "code": "01CAH-85",
        "name": "Cementos Anahuac",
        "state": "MEXICO",
        "municipality": "CUAUTITLAN IZCALLI",
        "latitude": 19.7153,
        "longitude": -99.2192
    },
    {
        "region": "VDM NORTE",
        "code": "01FMC-85",
        "name": "Ford Motor Co",
        "state": "MEXICO",
        "municipality": "CUAUTITLAN IZCALLI",
        "latitude": 19.7125,
        "longitude": -99.2100
    },
    {
        "region": "VDM NORTE",
        "code": "01LDG-230",
        "name": "Lago de Guadalupe",
        "state": "MEXICO",
        "municipality": "CUAUTITLAN IZCALLI",
        "latitude": 19.7358,
        "longitude": -99.2450
    },
    {
        "region": "VDM NORTE",
        "code": "01LQX-85",
        "name": "Liquimex",
        "state": "MEXICO",
        "municipality": "CUAUTITLAN IZCALLI",
        "latitude": 19.7250,
        "longitude": -99.2350
    },
    {
        "region": "VDM NORTE",
        "code": "01REM-230",
        "name": "Remedios",
        "state": "MEXICO",
        "municipality": "CUAUTITLAN IZCALLI",
        "latitude": 19.7300,
        "longitude": -99.2400
    },
    {
        "region": "VDM NORTE",
        "code": "01REM-85",
        "name": "Remedios",
        "state": "MEXICO",
        "municipality": "CUAUTITLAN IZCALLI",
        "latitude": 19.7305,
        "longitude": -99.2405
    },
    {
        "region": "VDM NORTE",
        "code": "01TRX-85",
        "name": "Trimex",
        "state": "MEXICO",
        "municipality": "CUAUTITLAN IZCALLI",
        "latitude": 19.7200,
        "longitude": -99.2300
    },
    {
        "region": "VDM NORTE",
        "code": "01VIC-230",
        "name": "Victoria",
        "pais": "MEXICO",
        "municipio": "CUAUTITLAN IZCALLI",
        "latitud": 19.6469,
        "longitud": -99.2158
    },
    {
        "region": "VDM NORTE",
        "code": "01VIC-85",
        "name": "Victoria",
        "pais": "MEXICO",
        "municipio": "CUAUTITLAN IZCALLI",
        "latitud": 19.6469,
        "longitud": -99.2158
    },
    {
        "region": "VDM NORTE",
        "code": "01ZUM-85",
        "name": "Zumpango",
        "pais": "MEXICO",
        "municipio": "CUAUTITLAN IZCALLI",
        "latitud": 19.6469,
        "longitud": -99.2158
    },
    {
        "region": "CENTRO SUR",
        "code": "01DOG-115",
        "name": "Donato Guerra",
        "pais": "MEXICO",
        "municipio": "DONATO GUERRA",
        "latitud": 19.3083,
        "longitud": -100.1417
    },
    {
        "region": "CENTRO SUR",
        "code": "01ECB-115",
        "name": "Subestacion Cuatro Bombeo",
        "pais": "MEXICO",
        "municipio": "DONATO GUERRA",
        "latitud": 19.3083,
        "longitud": -100.1417
    },
    {
        "region": "CENTRO SUR",
        "code": "01EDB-115",
        "name": "Subestacion Dos Bombeo",
        "pais": "MEXICO",
        "municipio": "DONATO GUERRA",
        "latitud": 19.3083,
        "longitud": -100.1417
    },
    {
        "region": "CENTRO SUR",
        "code": "01ETB-115",
        "name": "Subestacion Tres Bombeo",
        "pais": "MEXICO",
        "municipio": "DONATO GUERRA",
        "latitud": 19.3083,
        "longitud": -100.1417
    },
    {
        "region": "VDM NORTE",
        "code": "01ATK-230",
        "name": "Aztecas",
        "pais": "MEXICO",
        "municipio": "ECATEPEC DE MORELOS",
        "latitud": 19.6018,
        "longitud": -99.0506
    },
    {
        "region": "VDM NORTE",
        "code": "01CPM-230",
        "name": "Carton y Papel de Mexico",
        "pais": "MEXICO",
        "municipio": "ECATEPEC DE MORELOS",
        "latitud": 19.6018,
        "longitud": -99.0506
    },
    {
        "region": "VDM NORTE",
        "code": "01CRG-230",
        "name": "Cerro Gordo",
        "pais": "MEXICO",
        "municipio": "ECATEPEC DE MORELOS",
        "latitud": 19.6018,
        "longitud": -99.0506
    },
    {
        "region": "VDM NORTE",
        "code": "01ECA-230",
        "name": "Ecatepec",
        "pais": "MEXICO",
        "municipio": "ECATEPEC DE MORELOS",
        "latitud": 19.6018,
        "longitud": -99.0506
    },
    {
        "region": "VDM NORTE",
        "code": "01ISC-85",
        "name": "Industrial San Cristobal",
        "pais": "MEXICO",
        "municipio": "ECATEPEC DE MORELOS",
        "latitud": 19.6018,
        "longitud": -99.0506
    },
    {
        "region": "VDM NORTE",
        "code": "01JLC-230",
        "name": "Jabon La Corona",
        "pais": "MEXICO",
        "municipio": "ECATEPEC DE MORELOS",
        "latitud": 19.6018,
        "longitud": -99.0506
    },
    {
        "region": "VDM NORTE",
        "code": "01LCT-85",
        "name": "La Costeña",
        "pais": "MEXICO",
        "municipio": "ECATEPEC DE MORELOS",
        "latitud": 19.6018,
        "longitud": -99.0506
    },
    {
        "region": "VDM NORTE",
        "code": "01MAD-230",
        "name": "Madero",
        "pais": "MEXICO",
        "municipio": "ECATEPEC DE MORELOS",
        "latitud": 19.6018,
        "longitud": -99.0506
    },
    {
        "region": "VDM NORTE",
        "code": "01ROL-230",
        "name": "Caracol",
        "pais": "MEXICO",
        "municipio": "ECATEPEC DE MORELOS",
        "latitud": 19.6018,
        "longitud": -99.0506
    },
    {
        "region": "VDM NORTE",
        "code": "01VAE-230",
        "name": "Valle de Mexico",
        "pais": "MEXICO",
        "municipio": "ECATEPEC DE MORELOS",
        "latitud": 19.6018,
        "longitud": -99.0506
    },
    {
        "region": "VDM NORTE",
        "code": "01VDM-85",
        "name": "Valle de Mexico Turbogas",
        "pais": "MEXICO",
        "municipio": "ECATEPEC DE MORELOS",
        "latitud": 19.6018,
        "longitud": -99.0506
    },
    {
        "region": "VDM NORTE",
        "code": "01XAL-230",
        "name": "Xalostoc",
        "pais": "MEXICO",
        "municipio": "ECATEPEC DE MORELOS",
        "latitud": 19.6018,
        "longitud": -99.0506
    },
    {
        "region": "VDM NORTE",
        "code": "01LAR-230",
        "name": "Las Americas",
        "pais": "MEXICO",
        "municipio": "HUEHUETOCA",
        "latitud": 19.8375,
        "longitud": -99.2039
    },
    {
        "region": "VDM NORTE",
        "code": "01TEH-230",
        "name": "Tecamachalco",
        "pais": "MEXICO",
        "municipio": "HUIXQUILUCAN",
        "latitud": 19.3608,
        "longitud": -99.3508
    },
    {
        "region": "VDM SUR",
        "code": "01IXL-230",
        "name": "Ixtapaluca",
        "pais": "MEXICO",
        "municipio": "IXTAPALUCA",
        "latitud": 19.3186,
        "longitud": -98.8824
    },
    {
        "region": "VDM SUR",
        "code": "01SSO-85",
        "name": "San Francisco",
        "pais": "MEXICO",
        "municipio": "IXTAPALUCA",
        "latitud": 19.3186,
        "longitud": -98.8824
    },
    {
        "region": "CENTRO SUR",
        "code": "01IXS-115",
        "name": "Ixtapan de la Sal Mexico",
        "pais": "MEXICO",
        "municipio": "IXTAPAN DE LA SAL",
        "latitud": 18.8439,
        "longitud": -99.6767
    },
    {
        "region": "CENTRO SUR",
        "code": "01ITD-115",
        "name": "Ixtlahuaca Dos",
        "pais": "MEXICO",
        "municipio": "IXTLAHUACA",
        "latitud": 19.5689,
        "longitud": -99.7669
    },
    {
        "region": "CENTRO SUR",
        "code": "01NTG-115",
        "name": "Nutrigo",
        "pais": "MEXICO",
        "municipio": "IXTLAHUACA",
        "latitud": 19.5689,
        "longitud": -99.7669
    },
    {
        "region": "CENTRO SUR",
        "code": "01JID-115",
        "name": "Jilotepec Industrial",
        "pais": "MEXICO",
        "municipio": "JILOTEPEC",
        "latitud": 19.9506,
        "longitud": -99.5328
    },
    {
        "region": "CENTRO SUR",
        "code": "01JIL-115",
        "name": "Jilotepec Mexico",
        "pais": "MEXICO",
        "municipio": "JILOTEPEC",
        "latitud": 19.9506,
        "longitud": -99.5328
    },
    {
        "region": "CENTRO SUR",
        "code": "01INU-115",
        "name": "Industrias Unidas",
        "pais": "MEXICO",
        "municipio": "JOCOTITLAN",
        "latitud": 19.7075,
        "longitud": -99.7889
    },
    {
        "region": "CENTRO SUR",
        "code": "01IUN-115",
        "name": "Iusasol 1",
        "pais": "MEXICO",
        "municipio": "JOCOTITLAN",
        "latitud": 19.7075,
        "longitud": -99.7889
    },
    {
        "region": "VDM CENTRO",
        "code": "01LAP-230",
        "name": "La Paz",
        "pais": "MEXICO",
        "municipio": "LA PAZ",
        "latitud": 19.3636,
        "longitud": -98.9778
    },
    {
        "region": "VDM SUR",
        "code": "01AAP-85",
        "name": "Apaplastic",
        "pais": "MEXICO",
        "municipio": "LERMA",
        "latitud": 19.2847,
        "longitud": -99.5119
    },
    {
        "region": "VDM SUR",
        "code": "01AMO-85",
        "name": "Amomolulco",
        "pais": "MEXICO",
        "municipio": "LERMA",
        "latitud": 19.2847,
        "longitud": -99.5119
    },
    {
        "region": "VDM SUR",
        "code": "01ECR-230",
        "name": "El Cerrito",
        "pais": "MEXICO",
        "municipio": "LERMA",
        "latitud": 19.2847,
        "longitud": -99.5119
    },
    {
        "region": "VDM SUR",
        "code": "01GMC-85",
        "name": "General Motors de Mexico",
        "pais": "MEXICO",
        "municipio": "LERMA",
        "latitud": 19.2847,
        "longitud": -99.5119
    },
    {
        "region": "VDM SUR",
        "code": "01NIS-85",
        "name": "Nissan",
        "pais": "MEXICO",
        "municipio": "LERMA",
        "latitud": 19.2847,
        "longitud": -99.5119
    },
    {
        "region": "VDM SUR",
        "code": "01TTO-85",
        "name": "Tlatelulco",
        "pais": "MEXICO",
        "municipio": "METEPEC",
        "latitud": 19.2533,
        "longitud": -99.6044
    },
    {
        "region": "CENTRO SUR",
        "code": "01SSE-115",
        "name": "San Sebastian",
        "pais": "MEXICO",
        "municipio": "MORELOS",
        "latitud": 18.7392,
        "longitud": -99.1019
    },
    {
        "region": "VDM CENTRO",
        "code": "01INM-85",
        "name": "Industria Militar",
        "pais": "MEXICO",
        "municipio": "NAUCALPAN DE JUAREZ",
        "latitud": 19.4753,
        "longitud": -99.2378
    },
    {
        "region": "VDM NORTE",
        "code": "01LVE-230",
        "name": "Lomas Verdes",
        "pais": "MEXICO",
        "municipio": "NAUCALPAN DE JUAREZ",
        "latitud": 19.4753,
        "longitud": -99.2378
    },
    {
        "region": "VDM NORTE",
        "code": "01MLP-230",
        "name": "Chimalpa",
        "pais": "MEXICO",
        "municipio": "NAUCALPAN DE JUAREZ",
        "latitud": 19.4753,
        "longitud": -99.2378
    },
    {
        "region": "VDM NORTE",
        "code": "01NAU-85",
        "name": "Naucalpan",
        "pais": "MEXICO",
        "municipio": "NAUCALPAN DE JUAREZ",
        "latitud": 19.4753,
        "longitud": -99.2378
    },
    {
        "region": "VDM CENTRO",
        "code": "01MGR-85",
        "name": "Milagros",
        "pais": "MEXICO",
        "municipio": "NEZAHUALCOYOTL",
        "latitud": 19.4006,
        "longitud": -98.9889
    },
    {
        "region": "VDM CENTRO",
        "code": "01NET-85",
        "name": "Netzahualcoyotl",
        "pais": "MEXICO",
        "municipio": "NEZAHUALCOYOTL",
        "latitud": 19.4006,
        "longitud": -98.9889
    },
    {
        "region": "VDM NORTE",
        "code": "01EVD-230",
        "name": "El Vidrio",
        "pais": "MEXICO",
        "municipio": "NICOLAS ROMERO",
        "latitud": 19.6258,
        "longitud": -99.3139
    },
    {
        "region": "VDM SUR",
        "code": "01TTU-230",
        "name": "Tren Interurbano Mexico-Toluca Uno",
        "pais": "MEXICO",
        "municipio": "OCOYOACAC",
        "latitud": 19.2719,
        "longitud": -99.4639
    },
    {
        "region": "CENTRO ORIENTE",
        "code": "01OTM-230",
        "name": "Otumba Maniobras",
        "pais": "MEXICO",
        "municipio": "OTUMBA",
        "latitud": 19.6992,
        "longitud": -98.7569
    },
    {
        "region": "CENTRO SUR",
        "code": "01TIN-115",
        "name": "Tingambato",
        "pais": "MEXICO",
        "municipio": "OTZOLOAPAN",
        "latitud": 19.1175,
        "longitud": -100.2919
    },
    {
        "region": "CENTRO SUR",
        "code": "01FPG-115",
        "name": "San Felipe del Progreso",
        "pais": "MEXICO",
        "municipio": "SAN FELIPE DEL PROGRESO",
        "latitud": 19.7125,
        "longitud": -99.9519
    },
    {
        "region": "CENTRO SUR",
        "code": "01PLZ-115",
        "name": "Palizada Mexico",
        "pais": "MEXICO",
        "municipio": "SAN JOSE DEL RINCON",
        "latitud": 19.6333,
        "longitud": -100.1333
    },
    {
        "region": "CENTRO SUR",
        "code": "01BBR-115",
        "name": "Santa Barbara",
        "pais": "MEXICO",
        "municipio": "SANTO TOMAS",
        "latitud": 19.1833,
        "longitud": -100.2667
    },
    {
        "region": "CENTRO SUR",
        "code": "01IXT-115",
        "name": "Ixtapantongo",
        "pais": "MEXICO",
        "municipio": "SANTO TOMAS",
        "latitud": 19.1833,
        "longitud": -100.2667
    },
    {
        "region": "VDM NORTE",
        "code": "01TCM-230",
        "name": "Tecamac",
        "pais": "MEXICO",
        "municipio": "TECAMAC",
        "latitud": 19.7131,
        "longitud": -98.9689
    },
    {
        "region": "VDM NORTE",
        "code": "01TKM-230",
        "name": "Tecamac Movil",
        "pais": "MEXICO",
        "municipio": "TECAMAC",
        "latitud": 19.7131,
        "longitud": -98.9689
    },
    {
        "region": "CENTRO SUR",
        "code": "01TJP-115",
        "name": "Tejupilco Edo de Mexico",
        "pais": "MEXICO",
        "municipio": "TEJUPILCO",
        "latitud": 18.9058,
        "longitud": -100.1528
    },
    {
        "region": "CENTRO SUR",
        "code": "01CSN-115",
        "name": "Canchesda Nueva",
        "pais": "MEXICO",
        "municipio": "TEMASCALCINGO",
        "latitud": 19.9167,
        "longitud": -100.0000
    },
    {
        "region": "CENTRO SUR",
        "code": "01COM-115",
        "name": "Comalco",
        "pais": "MEXICO",
        "municipio": "TEMOAYA",
        "latitud": 19.4667,
        "longitud": -99.6000
    },
    {
        "region": "VDM SUR",
        "code": "01TDV-85",
        "name": "Tenango del Valle",
        "pais": "MEXICO",
        "municipio": "TENANGO DEL VALLE",
        "latitud": 19.1017,
        "longitud": -99.5894
    },
    {
        "region": "VDM SUR",
        "code": "01ZIC-85",
        "name": "Zictepec",
        "pais": "MEXICO",
        "municipio": "TENANGO DEL VALLE",
        "latitud": 19.1017,
        "longitud": -99.5894
    },
    {
        "region": "VDM NORTE",
        "code": "01CYO-85",
        "name": "Coyotepec",
        "pais": "MEXICO",
        "municipio": "TEPOTZOTLAN",
        "latitud": 19.7167,
        "longitud": -99.2167
    },
    {
        "region": "VDM NORTE",
        "code": "01JDV-85",
        "name": "Jugos del Valle",
        "pais": "MEXICO",
        "municipio": "TEPOTZOTLAN",
        "latitud": 19.7167,
        "longitud": -99.2167
    },
    {
        "region": "CENTRO SUR",
        "code": "01TTT-115",
        "name": "Texcaltitlan",
        "pais": "MEXICO",
        "municipio": "TEXCALTITLAN",
        "latitud": 18.9333,
        "longitud": -99.9333
    },
    {
        "region": "VDM CENTRO",
        "code": "01CPG-230",
        "name": "Chapingo",
        "pais": "MEXICO",
        "municipio": "TEXCOCO",
        "latitud": 19.5167,
        "longitud": -98.8833
    },
    {
        "region": "VDM CENTRO",
        "code": "01VRN-230",
        "name": "Veronica",
        "pais": "MEXICO",
        "municipio": "TEXCOCO",
        "latitud": 19.5167,
        "longitud": -98.8833
    },
    {
        "region": "VDM SUR",
        "code": "01EST-230",
        "name": "Estadio",
        "pais": "MEXICO",
        "municipio": "TEZOYUCA",
        "latitud": 19.5833,
        "longitud": -98.9167
    },
    {
        "region": "VDM SUR",
        "code": "01TIA-230",
        "name": "Tianguistenco",
        "pais": "MEXICO",
        "municipio": "TIANGUISTENCO",
        "latitud": 19.1797,
        "longitud": -99.4664
    },
    {
        "region": "CENTRO ORIENTE",
        "code": "01ACS-230",
        "name": "Aceros Corsa",
        "pais": "MEXICO",
        "municipio": "TLALNEPANTLA DE BAZ",
        "latitud": 19.5369,
        "longitud": -99.1947
    },
    {
        "region": "VDM NORTE",
        "code": "01ACC-85",
        "name": "Aceros Corsa",
        "pais": "MEXICO",
        "municipio": "TLALNEPANTLA DE BAZ",
        "latitud": 19.5369,
        "longitud": -99.1947
    },
    {
        "region": "VDM NORTE",
        "code": "01ACN-85",
        "name": "Aceros Nacionales",
        "pais": "MEXICO",
        "municipio": "TLALNEPANTLA DE BAZ",
        "latitud": 19.5369,
        "longitud": -99.1947
    },
    {
        "region": "VDM NORTE",
        "code": "01AUM-85",
        "name": "Auto Metales",
        "pais": "MEXICO",
        "municipio": "TLALNEPANTLA DE BAZ",
        "latitud": 19.5369,
        "longitud": -99.1947
    },
    {
        "region": "VDM NORTE",
        "code": "01BAR-85",
        "name": "Barrientos",
        "pais": "MEXICO",
        "municipio": "TLALNEPANTLA DE BAZ",
        "latitud": 19.5369,
        "longitud": -99.1947
    },
    {
        "region": "VDM NORTE",
        "code": "01CAR-85",
        "name": "Careaga",
        "pais": "MEXICO",
        "municipio": "TLALNEPANTLA DE BAZ",
        "latitud": 19.5369,
        "longitud": -99.1947
    },
    {
        "region": "VDM NORTE",
        "code": "01CEI-230",
        "name": "Ceilan",
        "pais": "MEXICO",
        "municipio": "TLALNEPANTLA DE BAZ",
        "latitud": 19.5369,
        "longitud": -99.1947
    },
    {
        "region": "VDM NORTE",
        "code": "01CFI-230",
        "name": "Cofraida",
        "pais": "MEXICO",
        "municipio": "TLALNEPANTLA DE BAZ",
        "latitud": 19.5369,
        "longitud": -99.1947
    },
    {
        "region": "VDM NORTE",
        "code": "01CHE-85",
        "name": "Campos Hermanos",
        "pais": "MEXICO",
        "municipio": "TLALNEPANTLA DE BAZ",
        "latitud": 19.5369,
        "longitud": -99.1947
    },
    {
        "region": "VDM NORTE",
        "code": "01LOM-85",
        "name": "Loma",
        "pais": "MEXICO",
        "municipio": "TLALNEPANTLA DE BAZ",
        "latitud": 19.5369,
        "longitud": -99.1947
    },
    {
        "region": "VDM NORTE",
        "code": "01VAJ-230",
        "name": "Vallejo",
        "pais": "MEXICO",
        "municipio": "TLALNEPANTLA DE BAZ",
        "latitud": 19.5369,
        "longitud": -99.1947
    },
    {
        "region": "VDM NORTE",
        "code": "01VLR-85",
        "name": "Vidriera los Reyes",
        "pais": "MEXICO",
        "municipio": "TLALNEPANTLA DE BAZ",
        "latitud": 19.5369,
        "longitud": -99.1947
    },
    {
        "region": "VDM NORTE",
        "code": "01VPM-85",
        "name": "Vidrio Plano de Mexico",
        "pais": "MEXICO",
        "municipio": "TLALNEPANTLA DE BAZ",
        "latitud": 19.5369,
        "longitud": -99.1947
    },
    {
        "region": "VDM SUR",
        "code": "01AVT-85",
        "name": "Avante Textil",
        "pais": "MEXICO",
        "municipio": "TOLUCA",
        "latitud": 19.2925,
        "longitud": -99.6569
    },
    {
        "region": "VDM SUR",
        "code": "01KDM-85",
        "name": "Chrysler de Mexico",
        "pais": "MEXICO",
        "municipio": "TOLUCA",
        "latitud": 19.2925,
        "longitud": -99.6569
    },
    {
        "region": "VDM SUR",
        "code": "01NLE-85",
        "name": "Nestle",
        "pais": "MEXICO",
        "municipio": "TOLUCA",
        "latitud": 19.2925,
        "longitud": -99.6569
    },
    {
        "region": "VDM SUR",
        "code": "01PRO-85",
        "name": "Propimex",
        "pais": "MEXICO",
        "municipio": "TOLUCA",
        "latitud": 19.2925,
        "longitud": -99.6569
    },
    {
        "region": "VDM SUR",
        "code": "01PTH-85",
        "name": "Puerta de Hierro",
        "pais": "MEXICO",
        "municipio": "TOLUCA",
        "latitud": 19.2925,
        "longitud": -99.6569
    },
    {
        "region": "VDM SUR",
        "code": "01RBS-85",
        "name": "Robert Bosch",
        "pais": "MEXICO",
        "municipio": "TOLUCA",
        "latitud": 19.2925,
        "longitud": -99.6569
    },
    {
        "region": "VDM SUR",
        "code": "01SAF-85",
        "name": "Safmex",
        "pais": "MEXICO",
        "municipio": "TOLUCA",
        "latitud": 19.2925,
        "longitud": -99.6569
    },
    {
        "region": "VDM SUR",
        "code": "01SDI-85",
        "name": "San Diego",
        "pais": "MEXICO",
        "municipio": "TOLUCA",
        "latitud": 19.2925,
        "longitud": -99.6569
    },
    {
        "region": "VDM SUR",
        "code": "01TDK-230",
        "name": "Toluca 2000",
        "pais": "MEXICO",
        "municipio": "TOLUCA",
        "latitud": 19.2925,
        "longitud": -99.6569
    },
    {
        "region": "VDM SUR",
        "code": "01TOL-85",
        "name": "Toluca",
        "pais": "MEXICO",
        "municipio": "TOLUCA",
        "latitud": 19.2925,
        "longitud": -99.6569
    },
    {
        "region": "VDM SUR",
        "code": "01TTC-230",
        "name": "Totoltepec",
        "pais": "MEXICO",
        "municipio": "TOLUCA",
        "latitud": 19.2925,
        "longitud": -99.6569
    },
    {
        "region": "VDM SUR",
        "code": "01VDT-85",
        "name": "Vidriera Toluca",
        "pais": "MEXICO",
        "municipio": "TOLUCA",
        "latitud": 19.2925,
        "longitud": -99.6569
    },
    {
        "region": "VDM NORTE",
        "code": "01DCO-85",
        "name": "De Acero",
        "pais": "MEXICO",
        "municipio": "TULTITLAN",
        "latitud": 19.6469,
        "longitud": -99.1678
    },
    {
        "region": "VDM NORTE",
        "code": "01LAQ-85",
        "name": "La Quebrada",
        "pais": "MEXICO",
        "municipio": "TULTITLAN",
        "latitud": 19.6469,
        "longitud": -99.1678
    },
    {
        "region": "VDM NORTE",
        "code": "01LEC-85",
        "name": "Lecheria",
        "pais": "MEXICO",
        "municipio": "TULTITLAN",
        "latitud": 19.6469,
        "longitud": -99.1678
    },
    {
        "region": "VDM NORTE",
        "code": "01NFA-85",
        "name": "Nueva Fanal",
        "pais": "MEXICO",
        "municipio": "TULTITLAN",
        "latitud": 19.6469,
        "longitud": -99.1678
    },
    {
        "region": "CENTRO SUR",
        "code": "01ANM-115",
        "name": "Agustin Millan",
        "pais": "MEXICO",
        "municipio": "VALLE DE BRAVO",
        "latitud": 19.1919,
        "longitud": -100.1319
    },
    {
        "region": "CENTRO SUR",
        "code": "01AVA-115",
        "name": "Avandaro",
        "pais": "MEXICO",
        "municipio": "VALLE DE BRAVO",
        "latitud": 19.1919,
        "longitud": -100.1319
    },
    {
        "region": "CENTRO SUR",
        "code": "01EUB-115",
        "name": "Subestacion Uno Bombeo",
        "pais": "MEXICO",
        "municipio": "VALLE DE BRAVO",
        "latitud": 19.1919,
        "longitud": -100.1319
    },
    {
        "region": "CENTRO SUR",
        "code": "01ESB-115",
        "name": "Subestacion Seis Bombeo",
        "pais": "MEXICO",
        "municipio": "VILLA DEL CARBON",
        "latitud": 19.7167,
        "longitud": -99.4667
    },
    {
        "region": "CENTRO SUR",
        "code": "01VGU-115",
        "name": "Villa Guerrero",
        "pais": "MEXICO",
        "municipio": "VILLA GUERRERO",
        "latitud": 18.9622,
        "longitud": -99.6406
    },
    {
        "region": "CENTRO SUR",
        "code": "01ENB-115",
        "name": "Subestacion Cinco Bombeo",
        "pais": "MEXICO",
        "municipio": "VILLA VICTORIA",
        "latitud": 19.4333,
        "longitud": -99.9833
    },
    {
        "region": "CENTRO SUR",
        "code": "01MTI-115",
        "name": "Minera Tizapa",
        "pais": "MEXICO",
        "municipio": "ZACAZONAPAN",
        "latitud": 19.0833,
        "longitud": -100.1833
    },
    {
        "region": "CENTRO SUR",
        "code": "01TMA-115",
        "name": "Tres Marias",
        "pais": "MEXICO",
        "municipio": "ZACAZONAPAN",
        "latitud": 19.0833,
        "longitud": -100.1833
    },
    {
        "region": "VDM SUR",
        "code": "01DVA-230",
        "name": "Deportiva",
        "pais": "MEXICO",
        "municipio": "ZINACANTEPEC",
        "latitud": 19.2833,
        "longitud": -99.7333
    },
    {
        "region": "CENTRO ORIENTE",
        "code": "01AFM-230",
        "name": "Aeropuerto Internacional Felipe Angeles Maniobras",
        "pais": "MEXICO",
        "municipio": "ZUMPANGO",
        "latitud": 19.7958,
        "longitud": -99.0186
    }
]